{
  "airports": [
    {
      "code": "JFK",
      "name": "John F. Kennedy International Airport",
      "city": "New York",
      "country": "United States",
      "timezone": "America/New_York",
      "lat": 40.6413,
      "lng": -73.7781
    },
    {
      "code": "LAX",
      "name": "Los Angeles International Airport",
      "city": "Los Angeles",
      "country": "United States",
      "timezone": "America/Los_Angeles",
      "lat": 33.9425,
      "lng": -118.4081
    },
    {
      "code": "ORD",
      "name": "O'Hare International Airport",
      "city": "Chicago",
      "country": "United States",
      "timezone": "America/Chicago",
      "lat": 41.9742,
      "lng": -87.9073
    },
    {
      "code": "LHR",
      "name": "London Heathrow Airport",
      "city": "London",
      "country": "United Kingdom",
      "timezone": "Europe/London",
      "lat": 51.4700,
      "lng": -0.4543
    },
    {
      "code": "CDG",
      "name": "Charles de Gaulle Airport",
      "city": "Paris",
      "country": "France",
      "timezone": "Europe/Paris",
      "lat": 49.0097,
      "lng": 2.5479
    },
    {
      "code": "DXB",
      "name": "Dubai International Airport",
      "city": "Dubai",
      "country": "United Arab Emirates",
      "timezone": "Asia/Dubai",
      "lat": 25.2532,
      "lng": 55.3657
    },
    {
      "code": "HND",
      "name": "Tokyo Haneda Airport",
      "city": "Tokyo",
      "country": "Japan",
      "timezone": "Asia/Tokyo",
      "lat": 35.5494,
      "lng": 139.7798
    },
    {
      "code": "SIN",
      "name": "Singapore Changi Airport",
      "city": "Singapore",
      "country": "Singapore",
      "timezone": "Asia/Singapore",
      "lat": 1.3644,
      "lng": 103.9915
    },
    {
      "code": "FRA",
      "name": "Frankfurt Airport",
      "city": "Frankfurt",
      "country": "Germany",
      "timezone": "Europe/Berlin",
      "lat": 50.0379,
      "lng": 8.5622
    },
    {
      "code": "AMS",
      "name": "Amsterdam Airport Schiphol",
      "city": "Amsterdam",
      "country": "Netherlands",
      "timezone": "Europe/Amsterdam",
      "lat": 52.3105,
      "lng": 4.7683
    },
    {
      "code": "MAD",
      "name": "Adolfo Suárez Madrid–Barajas Airport",
      "city": "Madrid",
      "country": "Spain",
      "timezone": "Europe/Madrid",
      "lat": 40.4983,
      "lng": -3.5676
    },
    {
      "code": "BCN",
      "name": "Barcelona–El Prat Airport",
      "city": "Barcelona",
      "country": "Spain",
      "timezone": "Europe/Madrid",
      "lat": 41.2974,
      "lng": 2.0833
    },
    {
      "code": "SYD",
      "name": "Sydney Kingsford Smith Airport",
      "city": "Sydney",
      "country": "Australia",
      "timezone": "Australia/Sydney",
      "lat": -33.9461,
      "lng": 151.1772
    },
    {
      "code": "MEL",
      "name": "Melbourne Airport",
      "city": "Melbourne",
      "country": "Australia",
      "timezone": "Australia/Melbourne",
      "lat": -37.6733,
      "lng": 144.8433
    },
    {
      "code": "YYZ",
      "name": "Toronto Pearson International Airport",
      "city": "Toronto",
      "country": "Canada",
      "timezone": "America/Toronto",
      "lat": 43.6777,
      "lng": -79.6248
    },
    {
      "code": "PEK",
      "name": "Beijing Capital International Airport",
      "city": "Beijing",
      "country": "China",
      "timezone": "Asia/Shanghai",
      "lat": 40.0799,
      "lng": 116.6031
    },
    {
      "code": "PVG",
      "name": "Shanghai Pudong International Airport",
      "city": "Shanghai",
      "country": "China",
      "timezone": "Asia/Shanghai",
      "lat": 31.1443,
      "lng": 121.8083
    },
    {
      "code": "HKG",
      "name": "Hong Kong International Airport",
      "city": "Hong Kong",
      "country": "Hong Kong",
      "timezone": "Asia/Hong_Kong",
      "lat": 22.3080,
      "lng": 113.9185
    },
    {
      "code": "ICN",
      "name": "Incheon International Airport",
      "city": "Seoul",
      "country": "South Korea",
      "timezone": "Asia/Seoul",
      "lat": 37.4602,
      "lng": 126.4407
    },
    {
      "code": "BOM",
      "name": "Chhatrapati Shivaji Maharaj International Airport",
      "city": "Mumbai",
      "country": "India",
      "timezone": "Asia/Kolkata",
      "lat": 19.0896,
      "lng": 72.8656
    },
    {
      "code": "DEL",
      "name": "Indira Gandhi International Airport",
      "city": "New Delhi",
      "country": "India",
      "timezone": "Asia/Kolkata",
      "lat": 28.5562,
      "lng": 77.1000
    },
    {
      "code": "IST",
      "name": "Istanbul Airport",
      "city": "Istanbul",
      "country": "Turkey",
      "timezone": "Europe/Istanbul",
      "lat": 41.2753,
      "lng": 28.7519
    },
    {
      "code": "MIA",
      "name": "Miami International Airport",
      "city": "Miami",
      "country": "United States",
      "timezone": "America/New_York",
      "lat": 25.7959,
      "lng": -80.2870
    },
    {
      "code": "ATL",
      "name": "Hartsfield-Jackson Atlanta International Airport",
      "city": "Atlanta",
      "country": "United States",
      "timezone": "America/New_York",
      "lat": 33.6407,
      "lng": -84.4277
    },
    {
      "code": "DFW",
      "name": "Dallas/Fort Worth International Airport",
      "city": "Dallas",
      "country": "United States",
      "timezone": "America/Chicago",
      "lat": 32.8998,
      "lng": -97.0403
    },
    {
      "code": "SFO",
      "name": "San Francisco International Airport",
      "city": "San Francisco",
      "country": "United States",
      "timezone": "America/Los_Angeles",
      "lat": 37.6213,
      "lng": -122.3790
    },
    {
      "code": "SEA",
      "name": "Seattle-Tacoma International Airport",
      "city": "Seattle",
      "country": "United States",
      "timezone": "America/Los_Angeles",
      "lat": 47.4502,
      "lng": -122.3088
    },
    {
      "code": "LAS",
      "name": "Harry Reid International Airport",
      "city": "Las Vegas",
      "country": "United States",
      "timezone": "America/Los_Angeles",
      "lat": 36.0840,
      "lng": -115.1537
    },
    {
      "code": "BOS",
      "name": "Logan International Airport",
      "city": "Boston",
      "country": "United States",
      "timezone": "America/New_York",
      "lat": 42.3656,
      "lng": -71.0096
    },
    {
      "code": "DEN",
      "name": "Denver International Airport",
      "city": "Denver",
      "country": "United States",
      "timezone": "America/Denver",
      "lat": 39.8561,
      "lng": -104.6737
    }
  ]
}